{
"type": "FeatureCollection",
"name": "無題のレイヤ",
"crs": { "type": "name", "properties": { "name": "urn:ogc:def:crs:OGC:1.3:CRS84" } },
"features": [
{ "type": "Feature", "properties": { "Name": "第一番札所　竺和山 霊山寺", "description": "徳島県大麻町板東126<br> <br>詳細 (http:\/\/www.shikoku88.info\/0200\/0010-1\/post-5.html)", "tessellate": -1 }, "geometry": { "type": "Point", "coordinates": [ 134.502968, 34.159548 ] } },
{ "type": "Feature", "properties": { "Name": "第二番札所　日照山極楽寺", "description": "徳島県鳴門市大麻町字檜ダンの上12<br>詳細 (http:\/\/www.shikoku88.info\/0200\/0010-1\/post-6.html)", "tessellate": -1 }, "geometry": { "type": "Point", "coordinates": [ 134.490386, 34.155879 ] } },
{ "type": "Feature", "properties": { "Name": "第三番札所　亀光山　金泉寺", "description": "徳島県板野郡板野町大寺66詳細 (http:\/\/www.shikoku88.info\/0200\/0010-1\/post-7.html)", "tessellate": -1 }, "geometry": { "type": "Point", "coordinates": [ 134.468526, 34.147488 ] } },
{ "type": "Feature", "properties": { "Name": "第四番札所　黒巖山　大日寺", "description": "徳島県板野郡板野町黒谷5詳細 (http:\/\/www.shikoku88.info\/0200\/0010-1\/post-8.html)", "tessellate": -1 }, "geometry": { "type": "Point", "coordinates": [ 134.430993, 34.151513 ] } },
{ "type": "Feature", "properties": { "Name": "第五番札所　無尽山　地蔵寺", "description": "徳島県板野郡板野町羅漢字林東５詳細 (http:\/\/www.shikoku88.info\/0200\/0010-1\/post-9.html)", "tessellate": -1 }, "geometry": { "type": "Point", "coordinates": [ 134.43215, 34.137139 ] } },
{ "type": "Feature", "properties": { "Name": "第六番札所　温泉山　安楽寺", "description": "徳島県板野郡上板町引野寺の西北８詳細 (http:\/\/www.shikoku88.info\/0200\/0010-1\/post-10.html)", "tessellate": -1 }, "geometry": { "type": "Point", "coordinates": [ 134.388381, 34.118058 ] } },
{ "type": "Feature", "properties": { "Name": "第七番札所　光明山　十楽寺", "description": "徳島県阿波市高尾法教田５８詳細 (http:\/\/www.shikoku88.info\/0200\/0010-1\/post-11.html)", "tessellate": -1 }, "geometry": { "type": "Point", "coordinates": [ 134.377813, 34.120789 ] } },
{ "type": "Feature", "properties": { "Name": "第八番札所　普明山　熊谷寺", "description": "徳島県阿波市土成前田１８５詳細 (http:\/\/www.shikoku88.info\/0200\/0010-1\/post-12.html)", "tessellate": -1 }, "geometry": { "type": "Point", "coordinates": [ 134.340059, 34.122867 ] } },
{ "type": "Feature", "properties": { "Name": "第九番札所　正覚山　法輪寺", "description": "徳島県阿波市土成田中９８－２詳細 (http:\/\/www.shikoku88.info\/0200\/0010-1\/post-13.html)", "tessellate": -1 }, "geometry": { "type": "Point", "coordinates": [ 134.333814, 34.104451 ] } },
{ "type": "Feature", "properties": { "Name": "第十番札所　得度山　切幡寺", "description": "徳島県阿波市観音１２９詳細 (http:\/\/www.shikoku88.info\/0200\/0010-1\/post-14.html)", "tessellate": -1 }, "geometry": { "type": "Point", "coordinates": [ 134.303838, 34.107958 ] } },
{ "type": "Feature", "properties": { "Name": "第十一番札所　金剛山　藤井寺", "description": "徳島県吉野川市鴨島町飯尾１５２５詳細 (http:\/\/www.shikoku88.info\/0200\/0010-1\/post-15.html)", "tessellate": -1 }, "geometry": { "type": "Point", "coordinates": [ 134.348567, 34.051975 ] } },
{ "type": "Feature", "properties": { "Name": "第十二番札所　摩盧山　焼山寺", "description": null, "tessellate": -1 }, "geometry": { "type": "Point", "coordinates": [ 134.310222, 33.984969 ] } },
{ "type": "Feature", "properties": { "Name": "第十三番札所　大栗山　大日寺", "description": "徳島県徳島市一宮町西丁３７６詳細 (http:\/\/www.shikoku88.info\/0200\/0010-1\/post-17.html)", "tessellate": -1 }, "geometry": { "type": "Point", "coordinates": [ 134.462657, 34.038098 ] } },
{ "type": "Feature", "properties": { "Name": "第十四番札所　盛寿山　常楽寺", "description": "徳島県徳島市国府町延命６０６詳細 (http:\/\/www.shikoku88.info\/0200\/0010-1\/post-18.html)", "tessellate": -1 }, "geometry": { "type": "Point", "coordinates": [ 134.475634, 34.050393 ] } },
{ "type": "Feature", "properties": { "Name": "第十五番札所　薬王山　国分寺", "description": "徳島県徳島市国府町矢野７１８－１詳細 (http:\/\/www.shikoku88.info\/0200\/0010-1\/post-19.html)", "tessellate": -1 }, "geometry": { "type": "Point", "coordinates": [ 134.473608, 34.055659 ] } },
{ "type": "Feature", "properties": { "Name": "第十六番札所　光耀山　観音寺", "description": "徳島県徳島市国府町字観音寺４９詳細 (http:\/\/www.shikoku88.info\/0200\/0010-1\/post-20.html)", "tessellate": -1 }, "geometry": { "type": "Point", "coordinates": [ 134.474335, 34.068498 ] } },
{ "type": "Feature", "properties": { "Name": "第十七番札所　瑠璃山　井戸寺", "description": "徳島県徳島市国府町井戸８０－１詳細 (http:\/\/www.shikoku88.info\/0200\/0010-1\/post-21.html)", "tessellate": -1 }, "geometry": { "type": "Point", "coordinates": [ 134.48548, 34.085172 ] } },
{ "type": "Feature", "properties": { "Name": "第十八番札所　母養山　恩山寺", "description": "徳島県小松島市田野町恩山寺谷４１詳細 (http:\/\/www.shikoku88.info\/0200\/0010-1\/post-22.html)", "tessellate": -1 }, "geometry": { "type": "Point", "coordinates": [ 134.57819, 33.986094 ] } },
{ "type": "Feature", "properties": { "Name": "第十九番札所　橋池山　立江寺", "description": "徳島県小松島市立江町字若松１３詳細 (http:\/\/www.shikoku88.info\/0200\/0010-1\/post-23.html)", "tessellate": -1 }, "geometry": { "type": "Point", "coordinates": [ 134.605868, 33.967951 ] } },
{ "type": "Feature", "properties": { "Name": "第二十番札所　霊鷲山　鶴林寺", "description": "徳島県勝浦郡勝浦町鶴山１４詳細 (http:\/\/www.shikoku88.info\/0200\/0010-1\/post-24.html)", "tessellate": -1 }, "geometry": { "type": "Point", "coordinates": [ 134.505057, 33.913654 ] } },
{ "type": "Feature", "properties": { "Name": "第二十一番札所　舎心山　太龍寺", "description": "徳島県阿南市加茂町龍山２詳細 (http:\/\/www.shikoku88.info\/0200\/0010-1\/post-25.html)", "tessellate": -1 }, "geometry": { "type": "Point", "coordinates": [ 134.521837, 33.882574 ] } },
{ "type": "Feature", "properties": { "Name": "第二十二番札所　白水山　平等寺", "description": "徳島県阿南市新野町秋山１７７<br>詳細 (http:\/\/www.shikoku88.info\/0200\/0010-1\/post-26.html)", "tessellate": -1 }, "geometry": { "type": "Point", "coordinates": [ 134.582128, 33.852303 ] } },
{ "type": "Feature", "properties": { "Name": "第二十三番札所　医王山　薬王寺", "description": "徳島県海部郡日和佐町奥河内寺前２８５－１<br>詳細 (http:\/\/www.shikoku88.info\/0200\/0010-1\/post-27.html)", "tessellate": -1 }, "geometry": { "type": "Point", "coordinates": [ 134.52758, 33.732194 ] } },
{ "type": "Feature", "properties": { "Name": "第二十四番札所　室戸山　最御崎寺", "description": "高知県室戸市室戸岬町４０５８－１詳細 (http:\/\/www.shikoku88.info\/0200\/0020-1\/post-28.html)", "tessellate": -1 }, "geometry": { "type": "Point", "coordinates": [ 134.175789, 33.249092 ] } },
{ "type": "Feature", "properties": { "Name": "第二十五番札所　宝珠山　津照寺", "description": "高知県室戸市室津２６４４詳細 (http:\/\/www.shikoku88.info\/0200\/0020-1\/post-29.html)", "tessellate": -1 }, "geometry": { "type": "Point", "coordinates": [ 134.148425, 33.288257 ] } },
{ "type": "Feature", "properties": { "Name": "第二十六番札所　竜頭山　金剛頂寺", "description": "高知県室戸市元乙５２３詳細 (http:\/\/www.shikoku88.info\/0200\/0020-1\/post-30.html)", "tessellate": -1 }, "geometry": { "type": "Point", "coordinates": [ 134.122856, 33.307241 ] } },
{ "type": "Feature", "properties": { "Name": "第二十七番札所　竹林山　神峯寺", "description": "高知県安芸郡安田町唐の浜２５９４<br>詳細 (http:\/\/www.shikoku88.info\/0200\/0020-1\/post-31.html)", "tessellate": -1 }, "geometry": { "type": "Point", "coordinates": [ 133.97457, 33.467282 ] } },
{ "type": "Feature", "properties": { "Name": "第二十八番札所　法界山　大日寺", "description": "高知県香美市野市町母代寺４７６詳細 (http:\/\/www.shikoku88.info\/0200\/0020-1\/post-32.html)", "tessellate": -1 }, "geometry": { "type": "Point", "coordinates": [ 133.70544, 33.57763 ] } },
{ "type": "Feature", "properties": { "Name": "第二十九番札所　摩尼山　国分寺", "description": "高知県南国市国分５４６詳細 (http:\/\/www.shikoku88.info\/0200\/0020-1\/post-33.html)", "tessellate": -1 }, "geometry": { "type": "Point", "coordinates": [ 133.640085, 33.598852 ] } },
{ "type": "Feature", "properties": { "Name": "第三十番札所　百々山　善楽寺", "description": "高知県高知市一宮２５０１詳細 (http:\/\/www.shikoku88.info\/0200\/0020-1\/post-34.html)", "tessellate": -1 }, "geometry": { "type": "Point", "coordinates": [ 133.577676, 33.591967 ] } },
{ "type": "Feature", "properties": { "Name": "第三十一番札所　五台山　竹林寺", "description": "高知県高知市五台山３５７７詳細 (http:\/\/www.shikoku88.info\/0200\/0020-1\/post-35.html)", "tessellate": -1 }, "geometry": { "type": "Point", "coordinates": [ 133.577415, 33.546805 ] } },
{ "type": "Feature", "properties": { "Name": "第三十二番札所　八葉山　禅師峰寺", "description": "高知県南国市十市３０８詳細 (http:\/\/www.shikoku88.info\/0200\/0020-1\/post-36.html)", "tessellate": -1 }, "geometry": { "type": "Point", "coordinates": [ 133.611391, 33.526788 ] } },
{ "type": "Feature", "properties": { "Name": "第三十三番札所　高福山　雪蹊寺", "description": "高知県高知市長浜８５７－３<br>詳細 (http:\/\/www.shikoku88.info\/0200\/0020-1\/post-37.html)", "tessellate": -1 }, "geometry": { "type": "Point", "coordinates": [ 133.542914, 33.50102 ] } },
{ "type": "Feature", "properties": { "Name": "第三十四番札所　本尾山　種間寺", "description": "高知県吾川郡春野町秋山７２詳細 (http:\/\/www.shikoku88.info\/0200\/0020-1\/post-38.html)", "tessellate": -1 }, "geometry": { "type": "Point", "coordinates": [ 133.487588, 33.491784 ] } },
{ "type": "Feature", "properties": { "Name": "第三十五番札所　醫王山　清瀧寺", "description": "高知県土佐市高岡町清滝５６８－１詳細 (http:\/\/www.shikoku88.info\/0200\/0020-1\/post-39.html)", "tessellate": -1 }, "geometry": { "type": "Point", "coordinates": [ 133.409477, 33.512578 ] } },
{ "type": "Feature", "properties": { "Name": "第三十六番札所　独鈷山　青龍寺", "description": "高知県土佐市宇佐町龍旧寺山６０１詳細 (http:\/\/www.shikoku88.info\/0200\/0020-1\/post-40.html)", "tessellate": -1 }, "geometry": { "type": "Point", "coordinates": [ 133.450783, 33.426087 ] } },
{ "type": "Feature", "properties": { "Name": "第三十七番札所　藤井山　岩本寺", "description": "日本高知県高岡郡四万十町茂串町３−１３<br>詳細 (http:\/\/www.shikoku88.info\/0200\/0020-1\/post-41.html)", "tessellate": -1 }, "geometry": { "type": "Point", "coordinates": [ 133.134623, 33.208042 ] } },
{ "type": "Feature", "properties": { "Name": "第三十八番札所　蹉跎山　金剛福寺", "description": "高知県土佐清水市足摺岬２１４－１詳細 (http:\/\/www.shikoku88.info\/0200\/0020-1\/post-42.html)", "tessellate": -1 }, "geometry": { "type": "Point", "coordinates": [ 133.018577, 32.72606 ] } },
{ "type": "Feature", "properties": { "Name": "第三十九番札所　赤亀山　延光寺", "description": "高知県宿毛市平田町中山３９０詳細 (http:\/\/www.shikoku88.info\/0200\/0020-1\/post-43.html)", "tessellate": -1 }, "geometry": { "type": "Point", "coordinates": [ 132.774628, 32.961815 ] } },
{ "type": "Feature", "properties": { "Name": "第四十番札所　平城山　観自在寺", "description": "愛媛県南宇和郡愛南町御荘平城２２５３－１詳細 (http:\/\/www.shikoku88.info\/0200\/0030-1\/post-44.html)", "tessellate": -1 }, "geometry": { "type": "Point", "coordinates": [ 132.563948, 32.964821 ] } },
{ "type": "Feature", "properties": { "Name": "第四十一番札所　稲荷山　龍光寺", "description": "愛媛県宇和島市三間町戸雁１７３詳細 (http:\/\/www.shikoku88.info\/0200\/0030-1\/post-45.html)", "tessellate": -1 }, "geometry": { "type": "Point", "coordinates": [ 132.598372, 33.295059 ] } },
{ "type": "Feature", "properties": { "Name": "第四十二番札所　一王果山　佛木寺", "description": "愛媛県宇和島市三間町１６８３詳細 (http:\/\/www.shikoku88.info\/0200\/0030-1\/post-46.html)", "tessellate": -1 }, "geometry": { "type": "Point", "coordinates": [ 132.582125, 33.310316 ] } },
{ "type": "Feature", "properties": { "Name": "第四十三番札所　源光山　明石寺", "description": "愛媛県西予市宇和町明石１０４<br> <br>詳細 (http:\/\/www.shikoku88.info\/0200\/0030-1\/post-47.html)", "tessellate": -1 }, "geometry": { "type": "Point", "coordinates": [ 132.518962, 33.369292 ] } },
{ "type": "Feature", "properties": { "Name": "第四十四番札所　菅生山　大寶寺", "description": "愛媛県上浮穴郡　久万高原町菅生二番耕地１１７３詳細 (http:\/\/www.shikoku88.info\/0200\/0030-1\/post-48.html)", "tessellate": -1 }, "geometry": { "type": "Point", "coordinates": [ 132.91205, 33.660974 ] } },
{ "type": "Feature", "properties": { "Name": "第四十五番札所　海岸山　岩屋寺", "description": "愛媛県上浮穴郡久万高原町七鳥１４６８詳細 (http:\/\/www.shikoku88.info\/0200\/0030-1\/post-49.html)", "tessellate": -1 }, "geometry": { "type": "Point", "coordinates": [ 132.980779, 33.658764 ] } },
{ "type": "Feature", "properties": { "Name": "第四十六番札所　医王山　浄瑠璃寺", "description": "愛媛県松山市浄瑠璃町２８２詳細 (http:\/\/www.shikoku88.info\/0200\/0030-1\/post-50.html)", "tessellate": -1 }, "geometry": { "type": "Point", "coordinates": [ 132.81916, 33.753592 ] } },
{ "type": "Feature", "properties": { "Name": "第四十七番札所　熊野山　八坂寺", "description": "愛媛県松山市浄瑠璃町八坂７７３詳細 (http:\/\/www.shikoku88.info\/0200\/0030-1\/post-51.html)", "tessellate": -1 }, "geometry": { "type": "Point", "coordinates": [ 132.812803, 33.758005 ] } },
{ "type": "Feature", "properties": { "Name": "第四十八番札所　清滝山　西林寺", "description": "愛媛県松山市高井町１００７詳細 (http:\/\/www.shikoku88.info\/0200\/0030-1\/post-52.html)", "tessellate": -1 }, "geometry": { "type": "Point", "coordinates": [ 132.813967, 33.793744 ] } },
{ "type": "Feature", "properties": { "Name": "第四十九番札所　西林山　浄土寺", "description": "愛媛県松山市鷹子町１１９８詳細 (http:\/\/www.shikoku88.info\/0200\/0030-1\/post-53.html)", "tessellate": -1 }, "geometry": { "type": "Point", "coordinates": [ 132.808279, 33.816707 ] } },
{ "type": "Feature", "properties": { "Name": "第五十番札所　東山　繁多寺", "description": "愛媛県松山市畑寺町３２詳細 (http:\/\/www.shikoku88.info\/0200\/0030-1\/post-54.html)", "tessellate": -1 }, "geometry": { "type": "Point", "coordinates": [ 132.804738, 33.828167 ] } },
{ "type": "Feature", "properties": { "Name": "第五十一番札所　熊野山　石手寺", "description": "愛媛県松山市石手２－９－２１詳細 (http:\/\/www.shikoku88.info\/0200\/0030-1\/post-55.html)", "tessellate": -1 }, "geometry": { "type": "Point", "coordinates": [ 132.79649, 33.847884 ] } },
{ "type": "Feature", "properties": { "Name": "第五十二番札所　瀧雲山　太山寺", "description": "愛媛県松山市太山寺町１７３０詳細 (http:\/\/www.shikoku88.info\/0200\/0030-1\/post-56.html)", "tessellate": -1 }, "geometry": { "type": "Point", "coordinates": [ 132.714981, 33.885135 ] } },
{ "type": "Feature", "properties": { "Name": "第五十三番札所　須賀山　圓明寺", "description": "愛媛県松山市和気町１－１８２詳細 (http:\/\/www.shikoku88.info\/0200\/0030-1\/post-57.html)", "tessellate": -1 }, "geometry": { "type": "Point", "coordinates": [ 132.739641, 33.891788 ] } },
{ "type": "Feature", "properties": { "Name": "第五十四番札所　近見山　延命寺", "description": "愛媛県今治市阿方甲６３６詳細 (http:\/\/www.shikoku88.info\/0200\/0030-1\/post-58.html)", "tessellate": -1 }, "geometry": { "type": "Point", "coordinates": [ 132.964005, 34.066899 ] } },
{ "type": "Feature", "properties": { "Name": "第五十五番札所　別宮山　南光坊", "description": "愛媛県今治市別宮町３－１<br>詳細 (http:\/\/www.shikoku88.info\/0200\/0030-1\/post-59.html)", "tessellate": -1 }, "geometry": { "type": "Point", "coordinates": [ 132.995725, 34.068174 ] } },
{ "type": "Feature", "properties": { "Name": "第五十六番札所　金輪山　泰山寺", "description": "愛媛県今治市小泉１－９－１８詳細 (http:\/\/www.shikoku88.info\/0200\/0030-1\/post-60.html)", "tessellate": -1 }, "geometry": { "type": "Point", "coordinates": [ 132.974447, 34.050039 ] } },
{ "type": "Feature", "properties": { "Name": "第五十七番札所　府頭山　栄福寺", "description": "愛媛県今治市玉川町八幡２００詳細 (http:\/\/www.shikoku88.info\/0200\/0030-1\/post-61.html)", "tessellate": -1 }, "geometry": { "type": "Point", "coordinates": [ 132.978373, 34.029702 ] } },
{ "type": "Feature", "properties": { "Name": "第五十八番札所　作礼山　仙遊寺", "description": "愛嬢県今治市玉川町別所４８３詳細 (http:\/\/www.shikoku88.info\/0200\/0030-1\/post-62.html)", "tessellate": -1 }, "geometry": { "type": "Point", "coordinates": [ 132.977314, 34.013272 ] } },
{ "type": "Feature", "properties": { "Name": "第五十九番札所　金光山　国分寺", "description": "愛媛県今治市国分４－１－３３詳細 (http:\/\/www.shikoku88.info\/0200\/0030-1\/post-63.html)", "tessellate": -1 }, "geometry": { "type": "Point", "coordinates": [ 133.02546, 34.02627 ] } },
{ "type": "Feature", "properties": { "Name": "第六十番札所　石鉄山　横峰寺", "description": "愛媛県西条市小松町石鎚２２５３詳細 (http:\/\/www.shikoku88.info\/0200\/0030-1\/post-64.html)", "tessellate": -1 }, "geometry": { "type": "Point", "coordinates": [ 133.111132, 33.837892 ] } },
{ "type": "Feature", "properties": { "Name": "第六十一番札所　栴檀山　香園寺", "description": "愛媛県西条市小松町南川１９詳細 (http:\/\/www.shikoku88.info\/0200\/0030-1\/post-65.html)", "tessellate": -1 }, "geometry": { "type": "Point", "coordinates": [ 133.103217, 33.893663 ] } },
{ "type": "Feature", "properties": { "Name": "第六十二番札所　天養山　宝寿寺", "description": "愛媛県西条市小松町新屋敷４２８詳細 (http:\/\/www.shikoku88.info\/0200\/0030-1\/post-66.html)", "tessellate": -1 }, "geometry": { "type": "Point", "coordinates": [ 133.115196, 33.89714 ] } },
{ "type": "Feature", "properties": { "Name": "第六十三番札所　密教山　吉祥寺", "description": "愛媛県西条市氷見乙１０４８詳細 (http:\/\/www.shikoku88.info\/0200\/0030-1\/post-67.html)", "tessellate": -1 }, "geometry": { "type": "Point", "coordinates": [ 133.129132, 33.896181 ] } },
{ "type": "Feature", "properties": { "Name": "第六十四番札所　石鉄山　前神寺", "description": "愛媛県西条市州之内甲１４２６詳細 (http:\/\/www.shikoku88.info\/0200\/0030-1\/post-68.html)", "tessellate": -1 }, "geometry": { "type": "Point", "coordinates": [ 133.160536, 33.890372 ] } },
{ "type": "Feature", "properties": { "Name": "第六十五番札所　由霊山　三角寺", "description": "愛媛県四国中央市金田町三角寺７５詳細 (http:\/\/www.shikoku88.info\/0200\/0030-1\/post-69.html)", "tessellate": -1 }, "geometry": { "type": "Point", "coordinates": [ 133.586487, 33.967664 ] } },
{ "type": "Feature", "properties": { "Name": "第六十六番札所　巨鼇山　雲辺寺", "description": "徳島県三好市池田町白地７６３－２詳細 (http:\/\/www.shikoku88.info\/0200\/0010-1\/post-70.html)", "tessellate": -1 }, "geometry": { "type": "Point", "coordinates": [ 133.723735, 34.035159 ] } },
{ "type": "Feature", "properties": { "Name": "第六十七番札所　小松尾山　大興寺", "description": "香川県三豊郡山本町小松尾4209詳細 (http:\/\/www.shikoku88.info\/0200\/0040-1\/post-71.html)", "tessellate": -1 }, "geometry": { "type": "Point", "coordinates": [ 133.719106, 34.102735 ] } },
{ "type": "Feature", "properties": { "Name": "第六十八番札所　琴弾山　神恵院", "description": "香川県観音寺市八幡町１丁目２−７<br>詳細 (http:\/\/www.shikoku88.info\/0200\/0040-1\/post-72.html)", "tessellate": -1 }, "geometry": { "type": "Point", "coordinates": [ 133.64726, 34.133996 ] } },
{ "type": "Feature", "properties": { "Name": "第六十九番札所　七宝山　観音寺", "description": "香川県観音寺市八幡町１－２－７<br> <br>詳細 (http:\/\/www.shikoku88.info\/0200\/0040-1\/post-73.html)", "tessellate": -1 }, "geometry": { "type": "Point", "coordinates": [ 133.647536, 34.134571 ] } },
{ "type": "Feature", "properties": { "Name": "第七十番札所　七宝山　本山寺", "description": "香川県三豊市豊中町本山甲１４４５詳細 (http:\/\/www.shikoku88.info\/0200\/0040-1\/post-74.html)", "tessellate": -1 }, "geometry": { "type": "Point", "coordinates": [ 133.694086, 34.13979 ] } },
{ "type": "Feature", "properties": { "Name": "第七十一番札所　剣五山　弥谷寺", "description": "香川県三豊市三野町大見乙７０詳細 (http:\/\/www.shikoku88.info\/0200\/0040-1\/post-75.html)", "tessellate": -1 }, "geometry": { "type": "Point", "coordinates": [ 133.72432, 34.229829 ] } },
{ "type": "Feature", "properties": { "Name": "第七十二番札所　我拝師山　曼荼羅寺", "description": "香川県善通寺市吉原町１３８０－１詳細 (http:\/\/www.shikoku88.info\/0200\/0040-1\/post-76.html)", "tessellate": -1 }, "geometry": { "type": "Point", "coordinates": [ 133.750399, 34.223333 ] } },
{ "type": "Feature", "properties": { "Name": "第七十三番札所　我拝師山　出釈迦寺", "description": "香川県善通寺市吉原町１０９１詳細 (http:\/\/www.shikoku88.info\/0200\/0040-1\/post-77.html)", "tessellate": -1 }, "geometry": { "type": "Point", "coordinates": [ 133.750284, 34.219485 ] } },
{ "type": "Feature", "properties": { "Name": "第七十四番札所　医王山　甲山寺", "description": "香川県善通寺市弘田町１７６５－１詳細 (http:\/\/www.shikoku88.info\/0200\/0040-1\/post-78.html)", "tessellate": -1 }, "geometry": { "type": "Point", "coordinates": [ 133.765792, 34.233266 ] } },
{ "type": "Feature", "properties": { "Name": "第七十五番札所　五岳山　善通寺", "description": "香川県善通寺市善通寺町３－３－１詳細 (http:\/\/www.shikoku88.info\/0200\/0040-1\/post-79.html)", "tessellate": -1 }, "geometry": { "type": "Point", "coordinates": [ 133.774193, 34.225187 ] } },
{ "type": "Feature", "properties": { "Name": "第七十六番札所　鶏足山　金倉寺", "description": "香川県善通寺市金蔵寺町１１６０詳細 (http:\/\/www.shikoku88.info\/0200\/0040-1\/post-80.html)", "tessellate": -1 }, "geometry": { "type": "Point", "coordinates": [ 133.781086, 34.25018 ] } },
{ "type": "Feature", "properties": { "Name": "第七十七番札所　桑多山　道隆寺", "description": "香川県仲多度郡　多度津町北鴨１－３－３０詳細 (http:\/\/www.shikoku88.info\/0200\/0040-1\/post-81.html)", "tessellate": -1 }, "geometry": { "type": "Point", "coordinates": [ 133.762724, 34.276829 ] } },
{ "type": "Feature", "properties": { "Name": "第七十八番札所　仏光山　郷照寺", "description": "香川県綾歌郡宇多津町１４３５詳細 (http:\/\/www.shikoku88.info\/0200\/0040-1\/post-82.html)", "tessellate": -1 }, "geometry": { "type": "Point", "coordinates": [ 133.82471, 34.306776 ] } },
{ "type": "Feature", "properties": { "Name": "第七十九番札所　金華山　天皇寺", "description": "香川県坂出市西庄町１７１３－２詳細 (http:\/\/www.shikoku88.info\/0200\/0040-1\/post-83.html)", "tessellate": -1 }, "geometry": { "type": "Point", "coordinates": [ 133.882989, 34.311531 ] } },
{ "type": "Feature", "properties": { "Name": "第八十番札所　白牛山　國分寺", "description": "香川県高松市国分寺町国分２０６５詳細 (http:\/\/www.shikoku88.info\/0200\/0040-1\/post-84.html)", "tessellate": -1 }, "geometry": { "type": "Point", "coordinates": [ 133.944454, 34.303209 ] } },
{ "type": "Feature", "properties": { "Name": "第八十一番札所　陵松山　白峯寺", "description": "香川県坂出市青海町２６３５詳細 (http:\/\/www.shikoku88.info\/0200\/0040-1\/post-85.html)", "tessellate": -1 }, "geometry": { "type": "Point", "coordinates": [ 133.926725, 34.333656 ] } },
{ "type": "Feature", "properties": { "Name": "第八十二番札所　青峰山　根香寺", "description": "香川県高松市中山町１５０９<br>詳細 (http:\/\/www.shikoku88.info\/0200\/0040-1\/post-86.html)", "tessellate": -1 }, "geometry": { "type": "Point", "coordinates": [ 133.960746, 34.344437 ] } },
{ "type": "Feature", "properties": { "Name": "第八十三番札所　神毫山　一宮寺", "description": "香川県高松市一宮町６０７詳細 (http:\/\/www.shikoku88.info\/0200\/0040-1\/post-87.html)", "tessellate": -1 }, "geometry": { "type": "Point", "coordinates": [ 134.026385, 34.286745 ] } },
{ "type": "Feature", "properties": { "Name": "第八十四番札所　南面山　屋島寺", "description": "香川県高松市屋島東町１８０８詳細 (http:\/\/www.shikoku88.info\/0200\/0040-1\/post-88.html)", "tessellate": -1 }, "geometry": { "type": "Point", "coordinates": [ 134.101192, 34.357989 ] } },
{ "type": "Feature", "properties": { "Name": "第八十五番札所　五剣山　八栗寺", "description": "香川県高松市牟礼町牟礼３４１６詳細 (http:\/\/www.shikoku88.info\/0200\/0040-1\/post-89.html)", "tessellate": -1 }, "geometry": { "type": "Point", "coordinates": [ 134.139327, 34.359796 ] } },
{ "type": "Feature", "properties": { "Name": "第八十六番札所　補陀落山　志度寺", "description": "香川県さぬき市志度１１０２詳細 (http:\/\/www.shikoku88.info\/0200\/0040-1\/post-90.html)", "tessellate": -1 }, "geometry": { "type": "Point", "coordinates": [ 134.179526, 34.324359 ] } },
{ "type": "Feature", "properties": { "Name": "第八十七番札所　補陀落山　長尾寺", "description": "香川県さぬき市長尾西６５３詳細 (http:\/\/www.shikoku88.info\/0200\/0040-1\/post-91.html)", "tessellate": -1 }, "geometry": { "type": "Point", "coordinates": [ 134.171737, 34.266777 ] } },
{ "type": "Feature", "properties": { "Name": "第八十八番札所　医王山　大窪寺", "description": "香川県さぬき市多和兼割９６詳細 (http:\/\/www.shikoku88.info\/0200\/0040-1\/post-92.html)", "tessellate": -1 }, "geometry": { "type": "Point", "coordinates": [ 134.206699, 34.191597 ] } },
{ "type": "Feature", "properties": { "Name": "八十八箇所直線距離", "description": "八十八箇所を直線でつなぐと", "tessellate": 1 }, "geometry": { "type": "LineString", "coordinates": [ [ 134.502879, 34.159519 ], [ 134.490455, 34.156043 ], [ 134.468633, 34.147568 ], [ 134.430873, 34.151351 ], [ 134.431844, 34.137272 ], [ 134.38843, 34.118045 ], [ 134.377905, 34.120798 ], [ 134.340032, 34.122832 ], [ 134.3339, 34.104454 ], [ 134.303835, 34.107863 ], [ 134.348508, 34.051986 ], [ 134.310291, 33.985053 ], [ 134.462585, 34.038105 ], [ 134.475623, 34.050342 ], [ 134.473622, 34.055642 ], [ 134.474343, 34.068454 ], [ 134.485475, 34.085127 ], [ 134.578113, 33.986112 ], [ 134.605815, 33.967971 ], [ 134.505095, 33.913631 ], [ 134.521762, 33.882594 ], [ 134.582056, 33.852323 ], [ 134.527612, 33.73219 ], [ 134.17584, 33.249078 ], [ 134.148377, 33.288246 ], [ 134.122824, 33.307216 ], [ 133.974562, 33.467278 ], [ 133.705349, 33.577601 ], [ 133.640195, 33.598792 ], [ 133.577751, 33.592016 ], [ 133.577509, 33.546874 ], [ 133.611294, 33.526793 ], [ 133.54282, 33.501031 ], [ 133.4875, 33.491786 ], [ 133.40949, 33.512526 ], [ 133.450842, 33.426091 ], [ 133.134572, 33.20804 ], [ 133.018513, 32.726069 ], [ 132.774622, 32.961797 ], [ 132.563919, 32.964817 ], [ 132.598452, 33.295115 ], [ 132.58212, 33.310314 ], [ 132.518943, 33.369249 ], [ 132.912026, 33.660902 ], [ 132.980718, 33.658781 ], [ 132.819056, 33.753559 ], [ 132.81287, 33.757965 ], [ 132.813978, 33.793718 ], [ 132.808453, 33.816705 ], [ 132.804556, 33.828151 ], [ 132.796512, 33.847882 ], [ 132.715029, 33.885095 ], [ 132.739614, 33.891766 ], [ 132.963986, 34.066856 ], [ 132.995612, 34.068281 ], [ 132.974602, 34.050137 ], [ 132.97829, 34.029736 ], [ 132.977346, 34.013258 ], [ 133.025422, 34.026195 ], [ 133.111052, 33.837915 ], [ 133.103222, 33.893631 ], [ 133.115064, 33.897187 ], [ 133.129224, 33.896225 ], [ 133.16045, 33.890401 ], [ 133.586503, 33.967646 ], [ 133.723692, 34.035257 ], [ 133.719111, 34.10271 ], [ 133.647338, 34.133984 ], [ 133.647555, 34.134533 ], [ 133.694083, 34.139717 ], [ 133.724266, 34.229758 ], [ 133.750195, 34.223371 ], [ 133.750091, 34.219494 ], [ 133.765688, 34.233228 ], [ 133.774112, 34.225203 ], [ 133.780979, 34.250109 ], [ 133.762657, 34.276805 ], [ 133.824616, 34.306712 ], [ 133.882828, 34.31148 ], [ 133.944336, 34.30326 ], [ 133.926711, 34.333576 ], [ 133.96058, 34.34455 ], [ 134.026342, 34.286745 ], [ 134.101264, 34.357932 ], [ 134.139472, 34.359834 ], [ 134.179679, 34.324373 ], [ 134.171779, 34.266769 ], [ 134.206662, 34.191553 ] ] } }
]
}
